{
  "collection_points": [
    { "id": 1, "name": "Bin A", "latitude": -1.286389, "longitude": 36.817223 },
    { "id": 2, "name": "Bin B", "latitude": -1.28333, "longitude": 36.8219 },
    { "id": 3, "name": "Bin C", "latitude": -1.2898, "longitude": 36.8225 },
    { "id": 4, "name": "Bin D", "latitude": -1.2909, "longitude": 36.825 },
    { "id": 5, "name": "Bin E", "latitude": -1.2925, "longitude": 36.823 },
    { "id": 6, "name": "Bin F", "latitude": -1.295, "longitude": 36.820 },
    { "id": 7, "name": "Bin G", "latitude": -1.298, "longitude": 36.815 },
    { "id": 8, "name": "Bin H", "latitude": -1.300, "longitude": 36.810 },
    { "id": 9, "name": "Bin I", "latitude": -1.303, "longitude": 36.808 },
    { "id": 10, "name": "Bin J", "latitude": -1.305, "longitude": 36.806 },
    { "id": 11, "name": "Bin K", "latitude": -1.307, "longitude": 36.804 },
    { "id": 12, "name": "Bin L", "latitude": -1.309, "longitude": 36.802 },
    { "id": 13, "name": "Bin M", "latitude": -1.311, "longitude": 36.800 },
    { "id": 14, "name": "Bin N", "latitude": -1.313, "longitude": 36.798 },
    { "id": 15, "name": "Bin O", "latitude": -1.315, "longitude": 36.795 }
  ]
}
